$GPRMC,192352.799,A,4336.0500,N,11611.8394,W,0.00,0.00,301019,,,A*78
$GPGGA,192352.899,4336.0500,N,11611.8393,W,1,04,2.63,755.6,M,-18.6,M,,0000*58
$GPRMC,192352.899,A,4336.0500,N,11611.8393,W,0.00,0.00,301019,,,A*70
$GPGGA,192353.000,4336.0500,N,11611.8391,W,1,04,2.64,755.8,M,-18.6,M,,0000*5A
$GPRMC,192353.000,A,4336.0500,N,11611.8391,W,0.00,0.00,301019,,,A*7B
$GPGGA,192353.100,4336.0500,N,11611.8390,W,1,04,2.63,756.0,M,-18.6,M,,0000*56
$GPRMC,192353.100,A,4336.0500,N,11611.8390,W,0.00,0.00,301019,,,A*7B
$GPGGA,192353.200,4336.0500,N,11611.8388,W,1,04,2.64,756.2,M,-18.6,M,,0000*59
$GPRMC,192353.200,A,4336.0500,N,11611.8388,W,0.00,0.00,301019,,,A*71
$GPGGA,192353.299,4336.0500,N,11611.8387,W,1,04,2.64,756.4,M,-18.6,M,,0000*50
$GPRMC,192353.299,A,4336.0500,N,11611.8387,W,0.00,0.00,301019,,,A*7E
$GPGGA,192353.399,4336.0500,N,11611.8386,W,1,04,2.64,756.5,M,-18.6,M,,0000*51
$GPRMC,192353.399,A,4336.0500,N,11611.8386,W,0.00,0.00,301019,,,A*7E
$GPGGA,192353.500,4336.0501,N,11611.8386,W,1,04,2.64,756.7,M,-18.6,M,,0000*54
$GPRMC,192353.500,A,4336.0501,N,11611.8386,W,0.00,0.00,301019,,,A*79
$GPGGA,192353.600,4336.0501,N,11611.8385,W,1,04,2.64,756.8,M,-18.6,M,,0000*5B
$GPRMC,192353.600,A,4336.0501,N,11611.8385,W,0.00,0.00,301019,,,A*79
$GPGGA,192353.700,4336.0501,N,11611.8384,W,1,04,2.64,757.0,M,-18.6,M,,0000*52
$GPRMC,192353.700,A,4336.0501,N,11611.8384,W,0.00,0.00,301019,,,A*79
$GPGGA,192353.799,4336.0501,N,11611.8383,W,1,04,2.64,757.1,M,-18.6,M,,0000*54
$GPRMC,192353.799,A,4336.0501,N,11611.8383,W,0.00,0.00,301019,,,A*7E
$GPGGA,192353.899,4336.0501,N,11611.8382,W,1,04,2.64,757.2,M,-18.6,M,,0000*59
$GPRMC,192353.899,A,4336.0501,N,11611.8382,W,0.00,0.00,301019,,,A*70
$GPGGA,192354.000,4336.0501,N,11611.8382,W,1,04,2.64,757.2,M,-18.6,M,,0000*56
$GPRMC,192354.000,A,4336.0501,N,11611.8382,W,0.00,0.00,301019,,,A*7F
$GPGGA,192354.100,4336.0502,N,11611.8381,W,1,04,2.64,757.3,M,-18.6,M,,0000*56
$GPRMC,192354.100,A,4336.0502,N,11611.8381,W,0.00,0.00,301019,,,A*7E
$GPGGA,192354.200,4336.0502,N,11611.8381,W,1,04,2.64,757.3,M,-18.6,M,,0000*55
$GPRMC,192354.200,A,4336.0502,N,11611.8381,W,0.00,0.00,301019,,,A*7D
$GPGGA,192354.299,4336.0502,N,11611.8380,W,1,04,4.77,757.3,M,-18.6,M,,0000*50
$GPRMC,192354.299,A,4336.0502,N,11611.8380,W,0.00,0.00,301019,,,A*7C
$GPGGA,192354.399,4336.0502,N,11611.8380,W,1,04,4.77,757.4,M,-18.6,M,,0000*56
$GPRMC,192354.399,A,4336.0502,N,11611.8380,W,0.00,0.00,301019,,,A*7D
$GPGGA,192354.500,4336.0502,N,11611.8379,W,1,04,4.77,757.4,M,-18.6,M,,0000*56
$GPRMC,192354.500,A,4336.0502,N,11611.8379,W,0.00,0.00,301019,,,A*7D
$GPGGA,192354.600,4336.0502,N,11611.8379,W,1,04,4.77,757.4,M,-18.6,M,,0000*55
$GPRMC,192354.600,A,4336.0502,N,11611.8379,W,0.00,0.00,301019,,,A*7E
$GPGGA,192354.700,4336.0503,N,11611.8378,W,1,04,4.77,757.5,M,-18.6,M,,0000*55
$GPRMC,192354.700,A,4336.0503,N,11611.8378,W,0.00,0.00,301019,,,A*7F
$GPGGA,192354.799,4336.0503,N,11611.8377,W,1,04,4.77,757.7,M,-18.6,M,,0000*58
$GPRMC,192354.799,A,4336.0503,N,11611.8377,W,0.00,0.00,301019,,,A*70
$GPGGA,192354.899,4336.0503,N,11611.8376,W,1,04,4.77,757.7,M,-18.6,M,,0000*56
$GPRMC,192354.899,A,4336.0503,N,11611.8376,W,0.00,0.00,301019,,,A*7E
$GPGGA,192355.000,4336.0503,N,11611.8375,W,1,04,4.77,757.8,M,-18.6,M,,0000*53
$GPRMC,192355.000,A,4336.0503,N,11611.8375,W,0.00,0.00,301019,,,A*74
$GPGGA,192355.100,4336.0503,N,11611.8375,W,1,04,4.77,757.9,M,-18.6,M,,0000*53
$GPRMC,192355.100,A,4336.0503,N,11611.8375,W,0.00,0.00,301019,,,A*75
$GPGGA,192355.200,4336.0503,N,11611.8374,W,1,04,4.77,758.0,M,-18.6,M,,0000*57
$GPRMC,192355.200,A,4336.0503,N,11611.8374,W,0.00,0.00,301019,,,A*77
$GPGGA,192355.299,4336.0504,N,11611.8373,W,1,04,4.77,758.1,M,-18.6,M,,0000*56
$GPRMC,192355.299,A,4336.0504,N,11611.8373,W,0.00,0.00,301019,,,A*77
$GPGGA,192355.399,4336.0503,N,11611.8372,W,1,04,4.77,758.2,M,-18.6,M,,0000*52
$GPRMC,192355.399,A,4336.0503,N,11611.8372,W,0.00,0.00,301019,,,A*70
$GPGGA,192355.500,4336.0503,N,11611.8371,W,1,04,4.77,758.4,M,-18.6,M,,0000*51
$GPRMC,192355.500,A,4336.0503,N,11611.8371,W,0.00,0.00,301019,,,A*75
$GPGGA,192355.600,4336.0503,N,11611.8370,W,1,04,4.77,758.5,M,-18.6,M,,0000*52
$GPRMC,192355.600,A,4336.0503,N,11611.8370,W,0.00,0.00,301019,,,A*77
$GPGGA,192355.700,4336.0503,N,11611.8368,W,1,04,4.76,758.8,M,-18.6,M,,0000*56
$GPRMC,192355.700,A,4336.0503,N,11611.8368,W,0.00,0.00,301019,,,A*7F
$GPGGA,192355.799,4336.0503,N,11611.8366,W,1,04,4.77,759.0,M,-18.6,M,,0000*50
$GPRMC,192355.799,A,4336.0503,N,11611.8366,W,0.00,0.00,301019,,,A*71
$GPGGA,192355.899,4336.0503,N,11611.8364,W,1,04,4.77,759.3,M,-18.6,M,,0000*5E
$GPRMC,192355.899,A,4336.0503,N,11611.8364,W,0.00,0.00,301019,,,A*7C
$GPGGA,192356.000,4336.0503,N,11611.8362,W,1,04,4.77,759.5,M,-18.6,M,,0000*55
$GPRMC,192356.000,A,4336.0503,N,11611.8362,W,0.00,0.00,301019,,,A*71
$GPGGA,192356.100,4336.0503,N,11611.8360,W,1,04,4.77,759.7,M,-18.6,M,,0000*54
$GPRMC,192356.100,A,4336.0503,N,11611.8360,W,0.00,0.00,301019,,,A*72
$GPGGA,192356.200,4336.0503,N,11611.8358,W,1,04,4.77,759.9,M,-18.6,M,,0000*52
$GPRMC,192356.200,A,4336.0503,N,11611.8358,W,0.00,0.00,301019,,,A*7A
$GPGGA,192356.299,4336.0503,N,11611.8357,W,1,04,4.77,760.2,M,-18.6,M,,0000*5C
$GPRMC,192356.299,A,4336.0503,N,11611.8357,W,0.00,0.00,301019,,,A*75
$GPGGA,192356.399,4336.0503,N,11611.8355,W,1,04,4.77,760.4,M,-18.6,M,,0000*59
$GPRMC,192356.399,A,4336.0503,N,11611.8355,W,0.00,0.00,301019,,,A*76
$GPGGA,192356.500,4336.0503,N,11611.8354,W,1,04,4.77,760.6,M,-18.6,M,,0000*5C
$GPRMC,192356.500,A,4336.0503,N,11611.8354,W,0.00,0.00,301019,,,A*71
$GPGGA,192356.600,4336.0503,N,11611.8352,W,1,04,4.77,760.8,M,-18.6,M,,0000*57
$GPRMC,192356.600,A,4336.0503,N,11611.8352,W,0.00,0.00,301019,,,A*74
$GPGGA,192356.700,4336.0503,N,11611.8351,W,1,04,4.77,761.0,M,-18.6,M,,0000*5C
$GPRMC,192356.700,A,4336.0503,N,11611.8351,W,0.00,0.00,301019,,,A*76
$GPGGA,192356.799,4336.0503,N,11611.8350,W,1,04,4.77,761.2,M,-18.6,M,,0000*5F
$GPRMC,192356.799,A,4336.0503,N,11611.8350,W,0.00,0.00,301019,,,A*77
$GPGGA,192356.899,4336.0503,N,11611.8349,W,1,04,4.77,761.4,M,-18.6,M,,0000*5E
$GPRMC,192356.899,A,4336.0503,N,11611.8349,W,0.00,0.00,301019,,,A*70
$GPGGA,192357.000,4336.0503,N,11611.8348,W,1,04,4.77,761.6,M,-18.6,M,,0000*54
$GPRMC,192357.000,A,4336.0503,N,11611.8348,W,0.00,0.00,301019,,,A*78
$GPGGA,192357.100,4336.0503,N,11611.8347,W,1,04,4.77,761.8,M,-18.6,M,,0000*54
$GPRMC,192357.100,A,4336.0503,N,11611.8347,W,0.00,0.00,301019,,,A*76
$GPGGA,192357.200,4336.0503,N,11611.8346,W,1,04,4.77,762.0,M,-18.6,M,,0000*5D
$GPRMC,192357.200,A,4336.0503,N,11611.8346,W,0.00,0.00,301019,,,A*74
$GPGGA,192357.299,4336.0503,N,11611.8345,W,1,04,4.77,762.1,M,-18.6,M,,0000*5F
$GPRMC,192357.299,A,4336.0503,N,11611.8345,W,0.00,0.00,301019,,,A*77
$GPGGA,192357.399,4336.0504,N,11611.8344,W,1,04,4.77,762.3,M,-18.6,M,,0000*5A
$GPRMC,192357.399,A,4336.0504,N,11611.8344,W,0.00,0.00,301019,,,A*70
$GPGGA,192357.500,4336.0504,N,11611.8343,W,1,04,4.77,762.5,M,-18.6,M,,0000*5D
$GPRMC,192357.500,A,4336.0504,N,11611.8343,W,0.00,0.00,301019,,,A*71
$GPGGA,192357.600,4336.0504,N,11611.8341,W,1,04,4.77,762.7,M,-18.6,M,,0000*5E
$GPRMC,192357.600,A,4336.0504,N,11611.8341,W,0.00,0.00,301019,,,A*70
$GPGGA,192357.700,4336.0504,N,11611.8340,W,1,04,4.77,762.9,M,-18.6,M,,0000*50
$GPRMC,192357.700,A,4336.0504,N,11611.8340,W,0.00,0.00,301019,,,A*70
$GPGGA,192357.799,4336.0504,N,11611.8339,W,1,04,4.76,763.0,M,-18.6,M,,0000*57
$GPRMC,192357.799,A,4336.0504,N,11611.8339,W,0.00,0.00,301019,,,A*7E
$GPGGA,192357.899,4336.0504,N,11611.8336,W,1,04,4.77,763.3,M,-18.6,M,,0000*55
$GPRMC,192357.899,A,4336.0504,N,11611.8336,W,0.00,0.00,301019,,,A*7E
$GPGGA,192358.000,4336.0504,N,11611.8334,W,1,04,2.64,763.6,M,-18.6,M,,0000*51
$GPRMC,192358.000,A,4336.0504,N,11611.8334,W,0.00,0.00,301019,,,A*7B
$GPGGA,192358.100,4336.0504,N,11611.8332,W,1,04,2.64,763.9,M,-18.6,M,,0000*59
$GPRMC,192358.100,A,4336.0504,N,11611.8332,W,0.00,0.00,301019,,,A*7C
$GPGGA,192358.200,4336.0504,N,11611.8330,W,1,04,2.64,764.2,M,-18.6,M,,0000*54
$GPRMC,192358.200,A,4336.0504,N,11611.8330,W,0.00,0.00,301019,,,A*7D
$GPGGA,192358.299,4336.0504,N,11611.8328,W,1,04,2.64,764.4,M,-18.6,M,,0000*5B
$GPRMC,192358.299,A,4336.0504,N,11611.8328,W,0.00,0.00,301019,,,A*74
$GPGGA,192358.399,4336.0504,N,11611.8325,W,1,04,2.64,764.7,M,-18.6,M,,0000*54
$GPRMC,192358.399,A,4336.0504,N,11611.8325,W,0.00,0.00,301019,,,A*78
$GPGGA,192358.500,4336.0504,N,11611.8323,W,1,04,2.64,765.0,M,-18.6,M,,0000*52
$GPRMC,192358.500,A,4336.0504,N,11611.8323,W,0.00,0.00,301019,,,A*78
$GPGGA,192358.600,4336.0504,N,11611.8322,W,1,04,2.64,765.1,M,-18.6,M,,0000*51
$GPRMC,192358.600,A,4336.0504,N,11611.8322,W,0.00,0.00,301019,,,A*7A
$GPGGA,192358.700,4336.0504,N,11611.8320,W,1,04,2.64,765.2,M,-18.6,M,,0000*51
$GPRMC,192358.700,A,4336.0504,N,11611.8320,W,0.00,0.00,301019,,,A*79
$GPGGA,192358.799,4336.0504,N,11611.8319,W,1,04,2.64,765.4,M,-18.6,M,,0000*5D
$GPRMC,192358.799,A,4336.0504,N,11611.8319,W,0.00,0.00,301019,,,A*73
$GPGGA,192358.899,4336.0504,N,11611.8318,W,1,04,2.64,765.5,M,-18.6,M,,0000*52
$GPRMC,192358.899,A,4336.0504,N,11611.8318,W,0.00,0.00,301019,,,A*7D
$GPGGA,192359.000,4336.0504,N,11611.8317,W,1,04,2.64,765.7,M,-18.6,M,,0000*56
$GPRMC,192359.000,A,4336.0504,N,11611.8317,W,0.00,0.00,301019,,,A*7B
$GPGGA,192359.100,4336.0504,N,11611.8316,W,1,04,2.64,765.9,M,-18.6,M,,0000*58
$GPRMC,192359.100,A,4336.0504,N,11611.8316,W,0.00,0.00,301019,,,A*7B
$GPGGA,192359.200,4336.0504,N,11611.8315,W,1,04,2.64,766.0,M,-18.6,M,,0000*52
$GPRMC,192359.200,A,4336.0504,N,11611.8315,W,0.00,0.00,301019,,,A*7B
$GPGGA,192359.299,4336.0504,N,11611.8313,W,1,04,2.64,766.2,M,-18.6,M,,0000*56
$GPRMC,192359.299,A,4336.0504,N,11611.8313,W,0.00,0.00,301019,,,A*7D
$GPGGA,192359.399,4336.0504,N,11611.8312,W,1,04,2.64,766.3,M,-18.6,M,,0000*57
$GPRMC,192359.399,A,4336.0504,N,11611.8312,W,0.00,0.00,301019,,,A*7D
$GPGGA,192359.500,4336.0504,N,11611.8311,W,1,04,2.64,766.5,M,-18.6,M,,0000*54
$GPRMC,192359.500,A,4336.0504,N,11611.8311,W,0.00,0.00,301019,,,A*78
$GPGGA,192359.600,4336.0504,N,11611.8309,W,1,04,2.64,766.7,M,-18.6,M,,0000*5C
$GPRMC,192359.600,A,4336.0504,N,11611.8309,W,0.00,0.00,301019,,,A*72
$GPGGA,192359.700,4336.0504,N,11611.8308,W,1,04,2.64,766.9,M,-18.6,M,,0000*52
$GPRMC,192359.700,A,4336.0504,N,11611.8308,W,0.00,0.00,301019,,,A*72
$GPGGA,192359.799,4336.0504,N,11611.8306,W,1,04,2.64,767.1,M,-18.6,M,,0000*55
$GPRMC,192359.799,A,4336.0504,N,11611.8306,W,0.00,0.00,301019,,,A*7C
$GPGGA,192359.899,4336.0504,N,11611.8305,W,1,04,2.64,767.4,M,-18.6,M,,0000*5C
$GPRMC,192359.899,A,4336.0504,N,11611.8305,W,0.00,0.00,301019,,,A*70
$GPGGA,192400.000,4336.0504,N,11611.8303,W,1,04,2.64,767.6,M,-18.6,M,,0000*5B
$GPRMC,192400.000,A,4336.0504,N,11611.8303,W,0.00,0.00,301019,,,A*75
$GPGGA,192400.100,4336.0504,N,11611.8302,W,1,04,2.64,767.8,M,-18.6,M,,0000*55
$GPRMC,192400.100,A,4336.0504,N,11611.8302,W,0.00,0.00,301019,,,A*75
$GPGGA,192400.200,4336.0504,N,11611.8300,W,1,04,2.64,768.0,M,-18.6,M,,0000*53
$GPRMC,192400.200,A,4336.0504,N,11611.8300,W,0.00,0.00,301019,,,A*74
$GPGGA,192400.299,4336.0504,N,11611.8298,W,1,04,2.64,768.3,M,-18.6,M,,0000*50
$GPRMC,192400.299,A,4336.0504,N,11611.8298,W,0.00,0.00,301019,,,A*74
$GPGGA,192400.399,4336.0504,N,11611.8297,W,1,04,2.64,768.5,M,-18.6,M,,0000*58
$GPRMC,192400.399,A,4336.0504,N,11611.8297,W,0.00,0.00,301019,,,A*7A
$GPGGA,192400.500,4336.0504,N,11611.8295,W,1,04,2.64,768.8,M,-18.6,M,,0000*51
$GPRMC,192400.500,A,4336.0504,N,11611.8295,W,0.00,0.00,301019,,,A*7E
$GPGGA,192400.600,4336.0503,N,11611.8294,W,1,04,2.64,769.0,M,-18.6,M,,0000*5D
$GPRMC,192400.600,A,4336.0503,N,11611.8294,W,0.00,0.00,301019,,,A*7B
$GPGGA,192400.700,4336.0503,N,11611.8292,W,1,04,2.64,769.2,M,-18.6,M,,0000*58
$GPRMC,192400.700,A,4336.0503,N,11611.8292,W,0.00,0.00,301019,,,A*7C
$GPGGA,192400.799,4336.0503,N,11611.8291,W,1,04,2.64,769.4,M,-18.6,M,,0000*5D
$GPRMC,192400.799,A,4336.0503,N,11611.8291,W,0.00,0.00,301019,,,A*7F
$GPGGA,192400.899,4336.0503,N,11611.8289,W,1,04,2.64,769.6,M,-18.6,M,,0000*59
$GPRMC,192400.899,A,4336.0503,N,11611.8289,W,0.00,0.00,301019,,,A*79
$GPGGA,192401.000,4336.0503,N,11611.8288,W,1,04,2.64,769.8,M,-18.6,M,,0000*5F
$GPRMC,192401.000,A,4336.0503,N,11611.8288,W,0.00,0.00,301019,,,A*71
$GPGGA,192401.100,4336.0503,N,11611.8287,W,1,04,2.64,770.0,M,-18.6,M,,0000*51
$GPRMC,192401.100,A,4336.0503,N,11611.8287,W,0.00,0.00,301019,,,A*7F
$GPGGA,192401.200,4336.0503,N,11611.8286,W,1,04,2.64,770.2,M,-18.6,M,,0000*51
$GPRMC,192401.200,A,4336.0503,N,11611.8286,W,0.00,0.00,301019,,,A*7D
$GPGGA,192401.299,4336.0503,N,11611.8285,W,1,04,2.64,770.4,M,-18.6,M,,0000*54
$GPRMC,192401.299,A,4336.0503,N,11611.8285,W,0.00,0.00,301019,,,A*7E
$GPGGA,192401.399,4336.0503,N,11611.8284,W,1,04,2.64,770.6,M,-18.6,M,,0000*56
$GPRMC,192401.399,A,4336.0503,N,11611.8284,W,0.00,0.00,301019,,,A*7E
$GPGGA,192401.500,4336.0503,N,11611.8282,W,1,04,2.64,770.7,M,-18.6,M,,0000*57
$GPRMC,192401.500,A,4336.0503,N,11611.8282,W,0.00,0.00,301019,,,A*7E
$GPGGA,192401.600,4336.0503,N,11611.8281,W,1,04,2.64,770.9,M,-18.6,M,,0000*59
$GPRMC,192401.600,A,4336.0503,N,11611.8281,W,0.00,0.00,301019,,,A*7E
$GPGGA,192401.700,4336.0503,N,11611.8280,W,1,04,2.64,771.1,M,-18.6,M,,0000*50
$GPRMC,192401.700,A,4336.0503,N,11611.8280,W,0.00,0.00,301019,,,A*7E
$GPGGA,192401.799,4336.0503,N,11611.8278,W,1,04,2.64,771.3,M,-18.6,M,,0000*55
$GPRMC,192401.799,A,4336.0503,N,11611.8278,W,0.00,0.00,301019,,,A*79
$GPGGA,192401.899,4336.0503,N,11611.8277,W,1,04,2.64,771.5,M,-18.6,M,,0000*53
$GPRMC,192401.899,A,4336.0503,N,11611.8277,W,0.00,0.00,301019,,,A*79
$GPGGA,192402.000,4336.0502,N,11611.8276,W,1,04,2.64,771.7,M,-18.6,M,,0000*5A
$GPRMC,192402.000,A,4336.0502,N,11611.8276,W,0.00,0.00,301019,,,A*72
$GPGGA,192402.100,4336.0502,N,11611.8275,W,1,04,2.64,772.0,M,-18.6,M,,0000*5C
$GPRMC,192402.100,A,4336.0502,N,11611.8275,W,0.00,0.00,301019,,,A*70
$GPGGA,192402.200,4336.0503,N,11611.8273,W,1,04,2.64,772.2,M,-18.6,M,,0000*5A
$GPRMC,192402.200,A,4336.0503,N,11611.8273,W,0.00,0.00,301019,,,A*74
$GPGGA,192402.299,4336.0503,N,11611.8272,W,1,04,2.64,772.4,M,-18.6,M,,0000*5D
$GPRMC,192402.299,A,4336.0503,N,11611.8272,W,0.00,0.00,301019,,,A*75
$GPGGA,192402.399,4336.0503,N,11611.8270,W,1,04,2.64,772.6,M,-18.6,M,,0000*5C
$GPRMC,192402.399,A,4336.0503,N,11611.8270,W,0.00,0.00,301019,,,A*76
$GPGGA,192402.500,4336.0503,N,11611.8269,W,1,04,2.64,772.8,M,-18.6,M,,0000*5C
$GPRMC,192402.500,A,4336.0503,N,11611.8269,W,0.00,0.00,301019,,,A*78
$GPGGA,192402.600,4336.0503,N,11611.8268,W,1,04,4.76,773.0,M,-18.6,M,,0000*52
$GPRMC,192402.600,A,4336.0503,N,11611.8268,W,0.00,0.00,301019,,,A*7A
$GPGGA,192402.700,4336.0503,N,11611.8266,W,1,04,4.77,773.2,M,-18.6,M,,0000*5E
$GPRMC,192402.700,A,4336.0503,N,11611.8266,W,0.00,0.00,301019,,,A*75
$GPGGA,192402.799,4336.0503,N,11611.8265,W,1,04,4.77,773.4,M,-18.6,M,,0000*5B
$GPRMC,192402.799,A,4336.0503,N,11611.8265,W,0.00,0.00,301019,,,A*76
$GPGGA,192402.899,4336.0503,N,11611.8264,W,1,04,4.77,773.6,M,-18.6,M,,0000*57
$GPRMC,192402.899,A,4336.0503,N,11611.8264,W,0.00,0.00,301019,,,A*78
$GPGGA,192403.000,4336.0503,N,11611.8262,W,1,04,4.76,773.8,M,-18.6,M,,0000*57
$GPRMC,192403.000,A,4336.0503,N,11611.8262,W,0.00,0.00,301019,,,A*77
$GPGGA,192403.100,4336.0503,N,11611.8261,W,1,04,4.77,774.0,M,-18.6,M,,0000*5B
$GPRMC,192403.100,A,4336.0503,N,11611.8261,W,0.00,0.00,301019,,,A*75
$GPGGA,192403.200,4336.0503,N,11611.8260,W,1,04,4.77,774.1,M,-18.6,M,,0000*58
$GPRMC,192403.200,A,4336.0503,N,11611.8260,W,0.00,0.00,301019,,,A*77
$GPGGA,192403.299,4336.0503,N,11611.8258,W,1,04,4.76,774.3,M,-18.6,M,,0000*50
$GPRMC,192403.299,A,4336.0503,N,11611.8258,W,0.00,0.00,301019,,,A*7C
$GPGGA,192403.399,4336.0503,N,11611.8257,W,1,04,4.77,774.5,M,-18.6,M,,0000*59
$GPRMC,192403.399,A,4336.0503,N,11611.8257,W,0.00,0.00,301019,,,A*72
$GPGGA,192403.500,4336.0503,N,11611.8255,W,1,04,4.76,774.7,M,-18.6,M,,0000*5E
$GPRMC,192403.500,A,4336.0503,N,11611.8255,W,0.00,0.00,301019,,,A*76
$GPGGA,192403.600,4336.0503,N,11611.8254,W,1,04,4.76,775.0,M,-18.6,M,,0000*5A
$GPRMC,192403.600,A,4336.0503,N,11611.8254,W,0.00,0.00,301019,,,A*74
$GPGGA,192403.700,4336.0503,N,11611.8252,W,1,04,4.76,775.2,M,-18.6,M,,0000*5F
$GPRMC,192403.700,A,4336.0503,N,11611.8252,W,0.00,0.00,301019,,,A*73
$GPGGA,192403.799,4336.0503,N,11611.8251,W,1,04,4.77,775.5,M,-18.6,M,,0000*5A
$GPRMC,192403.799,A,4336.0503,N,11611.8251,W,0.00,0.00,301019,,,A*70
$GPGGA,192403.899,4336.0503,N,11611.8249,W,1,04,4.77,775.8,M,-18.6,M,,0000*51
$GPRMC,192403.899,A,4336.0503,N,11611.8249,W,0.00,0.00,301019,,,A*76
$GPGGA,192404.000,4336.0504,N,11611.8247,W,1,04,4.77,776.0,M,-18.6,M,,0000*5C
$GPRMC,192404.000,A,4336.0504,N,11611.8247,W,0.00,0.00,301019,,,A*70
$GPGGA,192404.100,4336.0504,N,11611.8246,W,1,04,4.77,776.2,M,-18.6,M,,0000*5E
$GPRMC,192404.100,A,4336.0504,N,11611.8246,W,0.00,0.00,301019,,,A*70
$GPGGA,192404.200,4336.0504,N,11611.8244,W,1,04,4.77,776.5,M,-18.6,M,,0000*58
$GPRMC,192404.200,A,4336.0504,N,11611.8244,W,0.00,0.00,301019,,,A*71
$GPGGA,192404.299,4336.0504,N,11611.8242,W,1,04,4.77,776.7,M,-18.6,M,,0000*5C
$GPRMC,192404.299,A,4336.0504,N,11611.8242,W,0.00,0.00,301019,,,A*77
$GPGGA,192404.399,4336.0504,N,11611.8241,W,1,04,4.76,777.0,M,-18.6,M,,0000*59
$GPRMC,192404.399,A,4336.0504,N,11611.8241,W,0.00,0.00,301019,,,A*75
$GPGGA,192404.500,4336.0504,N,11611.8239,W,1,04,4.76,777.2,M,-18.6,M,,0000*52
$GPRMC,192404.500,A,4336.0504,N,11611.8239,W,0.00,0.00,301019,,,A*7C
$GPGGA,192404.600,4336.0505,N,11611.8237,W,1,04,4.76,777.4,M,-18.6,M,,0000*58
$GPRMC,192404.600,A,4336.0505,N,11611.8237,W,0.00,0.00,301019,,,A*70
$GPGGA,192404.700,4336.0505,N,11611.8235,W,1,04,4.76,777.7,M,-18.6,M,,0000*58
$GPRMC,192404.700,A,4336.0505,N,11611.8235,W,0.00,0.00,301019,,,A*73
$GPGGA,192404.799,4336.0505,N,11611.8233,W,1,04,4.77,777.9,M,-18.6,M,,0000*51
$GPRMC,192404.799,A,4336.0505,N,11611.8233,W,0.00,0.00,301019,,,A*75
$GPGGA,192404.899,4336.0505,N,11611.8231,W,1,04,4.77,778.2,M,-18.6,M,,0000*58
$GPRMC,192404.899,A,4336.0505,N,11611.8231,W,0.00,0.00,301019,,,A*78
$GPGGA,192405.000,4336.0505,N,11611.8229,W,1,04,4.77,778.5,M,-18.6,M,,0000*5F
$GPRMC,192405.000,A,4336.0505,N,11611.8229,W,0.00,0.00,301019,,,A*78
$GPGGA,192405.100,4336.0505,N,11611.8226,W,1,04,4.76,778.8,M,-18.6,M,,0000*5D
$GPRMC,192405.100,A,4336.0505,N,11611.8226,W,0.00,0.00,301019,,,A*76
$GPGGA,192405.200,4336.0505,N,11611.8224,W,1,04,4.76,779.0,M,-18.6,M,,0000*55
$GPRMC,192405.200,A,4336.0505,N,11611.8224,W,0.00,0.00,301019,,,A*77
$GPGGA,192405.299,4336.0505,N,11611.8222,W,1,04,4.76,779.3,M,-18.6,M,,0000*50
$GPRMC,192405.299,A,4336.0505,N,11611.8222,W,0.00,0.00,301019,,,A*71
$GPGGA,192405.399,4336.0505,N,11611.8219,W,1,04,4.76,779.6,M,-18.6,M,,0000*5C
$GPRMC,192405.399,A,4336.0505,N,11611.8219,W,0.00,0.00,301019,,,A*78
$GPGGA,192405.500,4336.0505,N,11611.8217,W,1,04,4.77,779.8,M,-18.6,M,,0000*5B
$GPRMC,192405.500,A,4336.0505,N,11611.8217,W,0.00,0.00,301019,,,A*70
$GPGGA,192405.600,4336.0505,N,11611.8216,W,1,04,4.76,780.1,M,-18.6,M,,0000*57
$GPRMC,192405.600,A,4336.0505,N,11611.8216,W,0.00,0.00,301019,,,A*72
$GPGGA,192405.700,4336.0505,N,11611.8214,W,1,04,4.77,780.3,M,-18.6,M,,0000*57
$GPRMC,192405.700,A,4336.0505,N,11611.8214,W,0.00,0.00,301019,,,A*71
$GPGGA,192405.799,4336.0505,N,11611.8212,W,1,04,4.76,780.5,M,-18.6,M,,0000*56
$GPRMC,192405.799,A,4336.0505,N,11611.8212,W,0.00,0.00,301019,,,A*77
$GPGGA,192405.899,4336.0504,N,11611.8211,W,1,04,4.76,780.8,M,-18.6,M,,0000*56
$GPRMC,192405.899,A,4336.0504,N,11611.8211,W,0.00,0.00,301019,,,A*7A
$GPGGA,192406.000,4336.0504,N,11611.8209,W,1,04,4.77,781.0,M,-18.6,M,,0000*5C
$GPRMC,192406.000,A,4336.0504,N,11611.8209,W,0.00,0.00,301019,,,A*78
$GPGGA,192406.100,4336.0504,N,11611.8208,W,1,04,4.77,781.2,M,-18.6,M,,0000*5E
$GPRMC,192406.100,A,4336.0504,N,11611.8208,W,0.00,0.00,301019,,,A*78
$GPGGA,192406.200,4336.0504,N,11611.8206,W,1,04,4.77,781.4,M,-18.6,M,,0000*55
$GPRMC,192406.200,A,4336.0504,N,11611.8206,W,0.00,0.00,301019,,,A*75
$GPGGA,192406.299,4336.0504,N,11611.8205,W,1,04,4.76,781.5,M,-18.6,M,,0000*56
$GPRMC,192406.299,A,4336.0504,N,11611.8205,W,0.00,0.00,301019,,,A*76
$GPGGA,192406.399,4336.0504,N,11611.8203,W,1,04,4.76,781.8,M,-18.6,M,,0000*5C
$GPRMC,192406.399,A,4336.0504,N,11611.8203,W,0.00,0.00,301019,,,A*71
$GPGGA,192406.500,4336.0504,N,11611.8201,W,1,04,4.76,782.0,M,-18.6,M,,0000*53
$GPRMC,192406.500,A,4336.0504,N,11611.8201,W,0.00,0.00,301019,,,A*75
$GPGGA,192406.600,4336.0504,N,11611.8200,W,1,04,2.64,782.2,M,-18.6,M,,0000*56
$GPRMC,192406.600,A,4336.0504,N,11611.8200,W,0.00,0.00,301019,,,A*77
$GPGGA,192406.700,4336.0505,N,11611.8198,W,1,04,2.64,782.4,M,-18.6,M,,0000*52
$GPRMC,192406.700,A,4336.0505,N,11611.8198,W,0.00,0.00,301019,,,A*75
$GPGGA,192406.799,4336.0505,N,11611.8196,W,1,04,2.64,782.6,M,-18.6,M,,0000*5E
$GPRMC,192406.799,A,4336.0505,N,11611.8196,W,0.00,0.00,301019,,,A*7B
$GPGGA,192406.899,4336.0505,N,11611.8194,W,1,04,2.64,782.8,M,-18.6,M,,0000*5D
$GPRMC,192406.899,A,4336.0505,N,11611.8194,W,0.00,0.00,301019,,,A*76
$GPGGA,192407.000,4336.0505,N,11611.8193,W,1,04,2.64,783.0,M,-18.6,M,,0000*5A
$GPRMC,192407.000,A,4336.0505,N,11611.8193,W,0.00,0.00,301019,,,A*78
$GPGGA,192407.100,4336.0506,N,11611.8192,W,1,04,2.64,783.1,M,-18.6,M,,0000*58
$GPRMC,192407.100,A,4336.0506,N,11611.8192,W,0.00,0.00,301019,,,A*7B
$GPGGA,192407.200,4336.0506,N,11611.8190,W,1,04,2.64,783.2,M,-18.6,M,,0000*5A
$GPRMC,192407.200,A,4336.0506,N,11611.8190,W,0.00,0.00,301019,,,A*7A
$GPGGA,192407.299,4336.0506,N,11611.8189,W,1,04,2.64,783.4,M,-18.6,M,,0000*54
$GPRMC,192407.299,A,4336.0506,N,11611.8189,W,0.00,0.00,301019,,,A*72
$GPGGA,192407.399,4336.0507,N,11611.8187,W,1,04,2.64,783.5,M,-18.6,M,,0000*5B
$GPRMC,192407.399,A,4336.0507,N,11611.8187,W,0.00,0.00,301019,,,A*7C
$GPGGA,192407.500,4336.0507,N,11611.8186,W,1,04,2.65,783.7,M,-18.6,M,,0000*5F
$GPRMC,192407.500,A,4336.0507,N,11611.8186,W,0.00,0.00,301019,,,A*7B
$GPGGA,192407.600,4336.0507,N,11611.8184,W,1,04,2.64,783.8,M,-18.6,M,,0000*50
$GPRMC,192407.600,A,4336.0507,N,11611.8184,W,0.00,0.00,301019,,,A*7A
$GPGGA,192407.700,4336.0507,N,11611.8183,W,1,04,2.64,784.0,M,-18.6,M,,0000*59
$GPRMC,192407.700,A,4336.0507,N,11611.8183,W,0.00,0.00,301019,,,A*7C
$GPGGA,192407.799,4336.0507,N,11611.8181,W,1,04,2.64,784.2,M,-18.6,M,,0000*59
$GPRMC,192407.799,A,4336.0507,N,11611.8181,W,0.00,0.00,301019,,,A*7E
$GPGGA,192407.899,4336.0507,N,11611.8180,W,1,04,2.64,784.4,M,-18.6,M,,0000*51
$GPRMC,192407.899,A,4336.0507,N,11611.8180,W,0.00,0.00,301019,,,A*70
$GPGGA,192408.000,4336.0507,N,11611.8178,W,1,04,2.64,784.6,M,-18.6,M,,0000*53
$GPRMC,192408.000,A,4336.0507,N,11611.8178,W,0.00,0.00,301019,,,A*70
$GPGGA,192408.100,4336.0507,N,11611.8176,W,1,04,2.65,784.7,M,-18.6,M,,0000*5C
$GPRMC,192408.100,A,4336.0507,N,11611.8176,W,0.00,0.00,301019,,,A*7F
$GPGGA,192408.200,4336.0507,N,11611.8175,W,1,04,2.64,784.8,M,-18.6,M,,0000*52
$GPRMC,192408.200,A,4336.0507,N,11611.8175,W,0.00,0.00,301019,,,A*7F
$GPGGA,192408.299,4336.0507,N,11611.8174,W,1,04,2.64,784.9,M,-18.6,M,,0000*52
$GPRMC,192408.299,A,4336.0507,N,11611.8174,W,0.00,0.00,301019,,,A*7E
$GPGGA,192408.399,4336.0507,N,11611.8173,W,1,04,2.64,785.1,M,-18.6,M,,0000*5D
$GPRMC,192408.399,A,4336.0507,N,11611.8173,W,0.00,0.00,301019,,,A*78
$GPGGA,192408.500,4336.0507,N,11611.8172,W,1,04,2.65,785.1,M,-18.6,M,,0000*5B
$GPRMC,192408.500,A,4336.0507,N,11611.8172,W,0.00,0.00,301019,,,A*7F
$GPGGA,192408.600,4336.0507,N,11611.8171,W,1,04,2.64,785.2,M,-18.6,M,,0000*59
$GPRMC,192408.600,A,4336.0507,N,11611.8171,W,0.00,0.00,301019,,,A*7F
$GPGGA,192408.700,4336.0507,N,11611.8170,W,1,04,2.65,785.3,M,-18.6,M,,0000*59
$GPRMC,192408.700,A,4336.0507,N,11611.8170,W,0.00,0.00,301019,,,A*7F
$GPGGA,192408.799,4336.0507,N,11611.8169,W,1,04,2.64,785.4,M,-18.6,M,,0000*57
$GPRMC,192408.799,A,4336.0507,N,11611.8169,W,0.00,0.00,301019,,,A*77
$GPGGA,192408.899,4336.0507,N,11611.8168,W,1,04,2.64,785.6,M,-18.6,M,,0000*5B
$GPRMC,192408.899,A,4336.0507,N,11611.8168,W,0.00,0.00,301019,,,A*79
$GPGGA,192409.000,4336.0507,N,11611.8167,W,1,04,2.64,785.7,M,-18.6,M,,0000*5C
$GPRMC,192409.000,A,4336.0507,N,11611.8167,W,0.00,0.00,301019,,,A*7F
$GPGGA,192409.100,4336.0507,N,11611.8166,W,1,04,2.64,785.8,M,-18.6,M,,0000*53
$GPRMC,192409.100,A,4336.0507,N,11611.8166,W,0.00,0.00,301019,,,A*7F
$GPGGA,192409.200,4336.0507,N,11611.8165,W,1,04,2.64,786.0,M,-18.6,M,,0000*58
$GPRMC,192409.200,A,4336.0507,N,11611.8165,W,0.00,0.00,301019,,,A*7F
$GPGGA,192409.299,4336.0507,N,11611.8164,W,1,04,2.64,786.1,M,-18.6,M,,0000*58
$GPRMC,192409.299,A,4336.0507,N,11611.8164,W,0.00,0.00,301019,,,A*7E
$GPGGA,192409.399,4336.0507,N,11611.8163,W,1,04,2.64,786.2,M,-18.6,M,,0000*5D
$GPRMC,192409.399,A,4336.0507,N,11611.8163,W,0.00,0.00,301019,,,A*78
$GPGGA,192409.500,4336.0507,N,11611.8162,W,1,04,2.64,786.4,M,-18.6,M,,0000*5C
$GPRMC,192409.500,A,4336.0507,N,11611.8162,W,0.00,0.00,301019,,,A*7F
$GPGGA,192409.600,4336.0507,N,11611.8161,W,1,04,2.64,786.5,M,-18.6,M,,0000*5D
$GPRMC,192409.600,A,4336.0507,N,11611.8161,W,0.00,0.00,301019,,,A*7F
$GPGGA,192409.700,4336.0507,N,11611.8160,W,1,04,2.64,786.7,M,-18.6,M,,0000*5F
$GPRMC,192409.700,A,4336.0507,N,11611.8160,W,0.00,0.00,301019,,,A*7F
$GPGGA,192409.799,4336.0507,N,11611.8159,W,1,04,2.64,786.8,M,-18.6,M,,0000*5A
$GPRMC,192409.799,A,4336.0507,N,11611.8159,W,0.00,0.00,301019,,,A*75
$GPGGA,192409.899,4336.0507,N,11611.8158,W,1,04,2.64,786.9,M,-18.6,M,,0000*55
$GPRMC,192409.899,A,4336.0507,N,11611.8158,W,0.00,0.00,301019,,,A*7B
$GPGGA,192410.000,4336.0507,N,11611.8157,W,1,04,2.64,787.0,M,-18.6,M,,0000*52
$GPRMC,192410.000,A,4336.0507,N,11611.8157,W,0.00,0.00,301019,,,A*74
$GPGGA,192410.100,4336.0507,N,11611.8156,W,1,04,2.65,787.2,M,-18.6,M,,0000*51
$GPRMC,192410.100,A,4336.0507,N,11611.8156,W,0.00,0.00,301019,,,A*74
$GPGGA,192410.200,4336.0507,N,11611.8155,W,1,04,2.65,787.3,M,-18.6,M,,0000*50
$GPRMC,192410.200,A,4336.0507,N,11611.8155,W,0.00,0.00,301019,,,A*74
$GPGGA,192410.299,4336.0507,N,11611.8154,W,1,04,2.64,787.4,M,-18.6,M,,0000*57
$GPRMC,192410.299,A,4336.0507,N,11611.8154,W,0.00,0.00,301019,,,A*75
$GPGGA,192410.399,4336.0507,N,11611.8153,W,1,04,2.65,787.5,M,-18.6,M,,0000*51
$GPRMC,192410.399,A,4336.0507,N,11611.8153,W,0.00,0.00,301019,,,A*73
$GPGGA,192410.500,4336.0507,N,11611.8152,W,1,04,2.65,787.5,M,-18.6,M,,0000*56
$GPRMC,192410.500,A,4336.0507,N,11611.8152,W,0.00,0.00,301019,,,A*74
$GPGGA,192410.600,4336.0507,N,11611.8151,W,1,04,2.65,787.6,M,-18.6,M,,0000*55
$GPRMC,192410.600,A,4336.0507,N,11611.8151,W,0.00,0.00,301019,,,A*74
$GPGGA,192410.700,4336.0507,N,11611.8151,W,1,04,2.64,787.7,M,-18.6,M,,0000*54
$GPRMC,192410.700,A,4336.0507,N,11611.8151,W,0.00,0.00,301019,,,A*75
$GPGGA,192410.799,4336.0508,N,11611.8150,W,1,04,2.64,787.8,M,-18.6,M,,0000*55
$GPRMC,192410.799,A,4336.0508,N,11611.8150,W,0.00,0.00,301019,,,A*7B
$GPGGA,192410.899,4336.0508,N,11611.8150,W,1,04,2.64,787.8,M,-18.6,M,,0000*5A
$GPRMC,192410.899,A,4336.0508,N,11611.8150,W,0.00,0.00,301019,,,A*74
$GPGGA,192411.000,4336.0508,N,11611.8149,W,1,04,2.64,787.9,M,-18.6,M,,0000*5A
$GPRMC,192411.000,A,4336.0508,N,11611.8149,W,0.00,0.00,301019,,,A*75
$GPGGA,192411.100,4336.0508,N,11611.8149,W,1,04,2.65,787.9,M,-18.6,M,,0000*5A
$GPRMC,192411.100,A,4336.0508,N,11611.8149,W,0.00,0.00,301019,,,A*74
$GPGGA,192411.200,4336.0509,N,11611.8148,W,1,04,2.64,788.0,M,-18.6,M,,0000*5E
$GPRMC,192411.200,A,4336.0509,N,11611.8148,W,0.00,0.00,301019,,,A*77
$GPGGA,192411.299,4336.0509,N,11611.8148,W,1,04,2.64,788.0,M,-18.6,M,,0000*5E
$GPRMC,192411.299,A,4336.0509,N,11611.8148,W,0.00,0.00,301019,,,A*77
$GPGGA,192411.399,4336.0509,N,11611.8148,W,1,04,2.65,788.1,M,-18.6,M,,0000*5F
$GPRMC,192411.399,A,4336.0509,N,11611.8148,W,0.00,0.00,301019,,,A*76
$GPGGA,192411.500,4336.0509,N,11611.8147,W,1,04,2.64,788.1,M,-18.6,M,,0000*57
$GPRMC,192411.500,A,4336.0509,N,11611.8147,W,0.00,0.00,301019,,,A*7F
$GPGGA,192411.600,4336.0509,N,11611.8147,W,1,04,2.65,788.1,M,-18.6,M,,0000*55
$GPRMC,192411.600,A,4336.0509,N,11611.8147,W,0.00,0.00,301019,,,A*7C
$GPGGA,192411.700,4336.0509,N,11611.8147,W,1,04,2.64,788.2,M,-18.6,M,,0000*56
$GPRMC,192411.700,A,4336.0509,N,11611.8147,W,0.00,0.00,301019,,,A*7D
$GPGGA,192411.799,4336.0509,N,11611.8146,W,1,04,2.64,788.2,M,-18.6,M,,0000*57
$GPRMC,192411.799,A,4336.0509,N,11611.8146,W,0.00,0.00,301019,,,A*7C
$GPGGA,192411.899,4336.0509,N,11611.8146,W,1,04,2.65,788.3,M,-18.6,M,,0000*58
$GPRMC,192411.899,A,4336.0509,N,11611.8146,W,0.00,0.00,301019,,,A*73
$GPGGA,192412.000,4336.0508,N,11611.8145,W,1,04,2.64,788.4,M,-18.6,M,,0000*57
$GPRMC,192412.000,A,4336.0508,N,11611.8145,W,0.00,0.00,301019,,,A*7A
$GPGGA,192412.100,4336.0508,N,11611.8145,W,1,04,2.64,788.4,M,-18.6,M,,0000*56
$GPRMC,192412.100,A,4336.0508,N,11611.8145,W,0.00,0.00,301019,,,A*7B
$GPGGA,192412.200,4336.0508,N,11611.8144,W,1,04,2.64,788.5,M,-18.6,M,,0000*55
$GPRMC,192412.200,A,4336.0508,N,11611.8144,W,0.00,0.00,301019,,,A*79
$GPGGA,192412.299,4336.0508,N,11611.8144,W,1,04,2.64,788.6,M,-18.6,M,,0000*56
$GPRMC,192412.299,A,4336.0508,N,11611.8144,W,0.00,0.00,301019,,,A*79
$GPGGA,192412.399,4336.0508,N,11611.8143,W,1,04,2.64,788.6,M,-18.6,M,,0000*50
$GPRMC,192412.399,A,4336.0508,N,11611.8143,W,0.00,0.00,301019,,,A*7F
$GPGGA,192412.500,4336.0508,N,11611.8143,W,1,04,2.64,788.7,M,-18.6,M,,0000*57
$GPRMC,192412.500,A,4336.0508,N,11611.8143,W,0.00,0.00,301019,,,A*79
$GPGGA,192412.600,4336.0508,N,11611.8142,W,1,04,2.64,788.7,M,-18.6,M,,0000*55
$GPRMC,192412.600,A,4336.0508,N,11611.8142,W,0.00,0.00,301019,,,A*7B
$GPGGA,192412.700,4336.0508,N,11611.8141,W,1,04,2.64,788.8,M,-18.6,M,,0000*58
$GPRMC,192412.700,A,4336.0508,N,11611.8141,W,0.00,0.00,301019,,,A*79
$GPGGA,192412.799,4336.0507,N,11611.8141,W,1,04,2.64,788.9,M,-18.6,M,,0000*56
$GPRMC,192412.799,A,4336.0507,N,11611.8141,W,0.00,0.00,301019,,,A*76
$GPGGA,192412.899,4336.0507,N,11611.8140,W,1,04,2.65,788.9,M,-18.6,M,,0000*59
$GPRMC,192412.899,A,4336.0507,N,11611.8140,W,0.00,0.00,301019,,,A*78
$GPGGA,192413.000,4336.0507,N,11611.8140,W,1,04,2.65,789.0,M,-18.6,M,,0000*58
$GPRMC,192413.000,A,4336.0507,N,11611.8140,W,0.00,0.00,301019,,,A*71
$GPGGA,192413.100,4336.0506,N,11611.8139,W,1,04,2.65,789.1,M,-18.6,M,,0000*57
$GPRMC,192413.100,A,4336.0506,N,11611.8139,W,0.00,0.00,301019,,,A*7F
$GPGGA,192413.200,4336.0506,N,11611.8139,W,1,04,2.65,789.2,M,-18.6,M,,0000*57
$GPRMC,192413.200,A,4336.0506,N,11611.8139,W,0.00,0.00,301019,,,A*7C
$GPGGA,192413.299,4336.0506,N,11611.8138,W,1,04,2.65,789.3,M,-18.6,M,,0000*57
$GPRMC,192413.299,A,4336.0506,N,11611.8138,W,0.00,0.00,301019,,,A*7D
$GPGGA,192413.399,4336.0506,N,11611.8137,W,1,04,2.65,789.4,M,-18.6,M,,0000*5E
$GPRMC,192413.399,A,4336.0506,N,11611.8137,W,0.00,0.00,301019,,,A*73
$GPGGA,192413.500,4336.0506,N,11611.8137,W,1,04,2.65,789.5,M,-18.6,M,,0000*59
$GPRMC,192413.500,A,4336.0506,N,11611.8137,W,0.00,0.00,301019,,,A*75
$GPGGA,192413.600,4336.0506,N,11611.8136,W,1,04,2.65,789.5,M,-18.6,M,,0000*5B
$GPRMC,192413.600,A,4336.0506,N,11611.8136,W,0.00,0.00,301019,,,A*77
$GPGGA,192413.700,4336.0506,N,11611.8135,W,1,04,2.65,789.6,M,-18.6,M,,0000*5A
$GPRMC,192413.700,A,4336.0506,N,11611.8135,W,0.00,0.00,301019,,,A*75
$GPGGA,192413.799,4336.0506,N,11611.8135,W,1,04,2.65,789.7,M,-18.6,M,,0000*5B
$GPRMC,192413.799,A,4336.0506,N,11611.8135,W,0.00,0.00,301019,,,A*75
$GPGGA,192413.899,4336.0506,N,11611.8134,W,1,04,2.65,789.8,M,-18.6,M,,0000*5A
$GPRMC,192413.899,A,4336.0506,N,11611.8134,W,0.00,0.00,301019,,,A*7B
$GPGGA,192414.000,4336.0506,N,11611.8134,W,1,04,2.65,789.9,M,-18.6,M,,0000*54
$GPRMC,192414.000,A,4336.0506,N,11611.8134,W,0.00,0.00,301019,,,A*74
$GPGGA,192414.100,4336.0506,N,11611.8133,W,1,04,2.65,790.0,M,-18.6,M,,0000*53
$GPRMC,192414.100,A,4336.0506,N,11611.8133,W,0.00,0.00,301019,,,A*72
$GPGGA,192414.200,4336.0505,N,11611.8132,W,1,04,2.64,790.1,M,-18.6,M,,0000*52
$GPRMC,192414.200,A,4336.0505,N,11611.8132,W,0.00,0.00,301019,,,A*73
$GPGGA,192414.299,4336.0505,N,11611.8132,W,1,04,2.65,790.2,M,-18.6,M,,0000*50
$GPRMC,192414.299,A,4336.0505,N,11611.8132,W,0.00,0.00,301019,,,A*73
$GPGGA,192414.399,4336.0505,N,11611.8131,W,1,04,2.64,790.3,M,-18.6,M,,0000*52
$GPRMC,192414.399,A,4336.0505,N,11611.8131,W,0.00,0.00,301019,,,A*71
$GPGGA,192414.500,4336.0505,N,11611.8130,W,1,04,2.65,790.4,M,-18.6,M,,0000*53
$GPRMC,192414.500,A,4336.0505,N,11611.8130,W,0.00,0.00,301019,,,A*76
$GPGGA,192414.600,4336.0505,N,11611.8130,W,1,04,2.64,790.5,M,-18.6,M,,0000*50
$GPRMC,192414.600,A,4336.0505,N,11611.8130,W,0.00,0.00,301019,,,A*75
$GPGGA,192414.700,4336.0505,N,11611.8130,W,1,04,2.65,790.5,M,-18.6,M,,0000*50
$GPRMC,192414.700,A,4336.0505,N,11611.8130,W,0.00,0.00,301019,,,A*74
$GPGGA,192414.799,4336.0505,N,11611.8129,W,1,04,2.65,790.6,M,-18.6,M,,0000*5B
$GPRMC,192414.799,A,4336.0505,N,11611.8129,W,0.00,0.00,301019,,,A*7C
$GPGGA,192414.899,4336.0505,N,11611.8129,W,1,04,2.65,790.7,M,-18.6,M,,0000*55
$GPRMC,192414.899,A,4336.0505,N,11611.8129,W,0.00,0.00,301019,,,A*73
$GPGGA,192415.000,4336.0505,N,11611.8128,W,1,04,2.65,790.8,M,-18.6,M,,0000*52
$GPRMC,192415.000,A,4336.0505,N,11611.8128,W,0.00,0.00,301019,,,A*7B
$GPGGA,192415.100,4336.0505,N,11611.8127,W,1,04,2.65,790.9,M,-18.6,M,,0000*5D
$GPRMC,192415.100,A,4336.0505,N,11611.8127,W,0.00,0.00,301019,,,A*75
$GPGGA,192415.200,4336.0505,N,11611.8125,W,1,04,2.65,791.0,M,-18.6,M,,0000*54
$GPRMC,192415.200,A,4336.0505,N,11611.8125,W,0.00,0.00,301019,,,A*74
$GPGGA,192415.299,4336.0505,N,11611.8124,W,1,04,2.65,791.1,M,-18.6,M,,0000*54
$GPRMC,192415.299,A,4336.0505,N,11611.8124,W,0.00,0.00,301019,,,A*75
$GPGGA,192415.399,4336.0505,N,11611.8123,W,1,04,2.65,791.2,M,-18.6,M,,0000*51
$GPRMC,192415.399,A,4336.0505,N,11611.8123,W,0.00,0.00,301019,,,A*73
$GPGGA,192415.500,4336.0505,N,11611.8122,W,1,04,2.65,791.3,M,-18.6,M,,0000*57
$GPRMC,192415.500,A,4336.0505,N,11611.8122,W,0.00,0.00,301019,,,A*74
$GPGGA,192415.600,4336.0505,N,11611.8121,W,1,04,2.65,791.4,M,-18.6,M,,0000*50
$GPRMC,192415.600,A,4336.0505,N,11611.8121,W,0.00,0.00,301019,,,A*74
$GPGGA,192415.700,4336.0505,N,11611.8120,W,1,04,2.65,791.5,M,-18.6,M,,0000*51
$GPRMC,192415.700,A,4336.0505,N,11611.8120,W,0.00,0.00,301019,,,A*74
$GPGGA,192415.799,4336.0505,N,11611.8120,W,1,04,2.65,791.5,M,-18.6,M,,0000*51
$GPRMC,192415.799,A,4336.0505,N,11611.8120,W,0.00,0.00,301019,,,A*74
$GPGGA,192415.899,4336.0506,N,11611.8119,W,1,04,2.65,791.6,M,-18.6,M,,0000*54
$GPRMC,192415.899,A,4336.0506,N,11611.8119,W,0.00,0.00,301019,,,A*72
$GPGGA,192416.000,4336.0506,N,11611.8118,W,1,04,2.65,791.7,M,-18.6,M,,0000*5F
$GPRMC,192416.000,A,4336.0506,N,11611.8118,W,0.00,0.00,301019,,,A*78
$GPGGA,192416.100,4336.0506,N,11611.8117,W,1,04,2.65,791.8,M,-18.6,M,,0000*5E
$GPRMC,192416.100,A,4336.0506,N,11611.8117,W,0.00,0.00,301019,,,A*76
$GPGGA,192416.200,4336.0505,N,11611.8116,W,1,04,2.64,791.9,M,-18.6,M,,0000*5F
$GPRMC,192416.200,A,4336.0505,N,11611.8116,W,0.00,0.00,301019,,,A*77
$GPGGA,192416.299,4336.0505,N,11611.8115,W,1,04,2.65,792.0,M,-18.6,M,,0000*57
$GPRMC,192416.299,A,4336.0505,N,11611.8115,W,0.00,0.00,301019,,,A*74
$GPGGA,192416.399,4336.0505,N,11611.8114,W,1,04,2.65,792.1,M,-18.6,M,,0000*56
$GPRMC,192416.399,A,4336.0505,N,11611.8114,W,0.00,0.00,301019,,,A*74
$GPGGA,192416.500,4336.0505,N,11611.8113,W,1,04,2.65,792.2,M,-18.6,M,,0000*54
$GPRMC,192416.500,A,4336.0505,N,11611.8113,W,0.00,0.00,301019,,,A*75
$GPGGA,192416.600,4336.0505,N,11611.8112,W,1,04,2.65,792.3,M,-18.6,M,,0000*57
$GPRMC,192416.600,A,4336.0505,N,11611.8112,W,0.00,0.00,301019,,,A*77
$GPGGA,192416.700,4336.0505,N,11611.8111,W,1,04,2.65,792.4,M,-18.6,M,,0000*52
$GPRMC,192416.700,A,4336.0505,N,11611.8111,W,0.00,0.00,301019,,,A*75
$GPGGA,192416.799,4336.0505,N,11611.8110,W,1,04,2.65,792.5,M,-18.6,M,,0000*52
$GPRMC,192416.799,A,4336.0505,N,11611.8110,W,0.00,0.00,301019,,,A*74
$GPGGA,192416.899,4336.0505,N,11611.8109,W,1,04,2.65,792.6,M,-18.6,M,,0000*56
$GPRMC,192416.899,A,4336.0505,N,11611.8109,W,0.00,0.00,301019,,,A*73
$GPGGA,192417.000,4336.0505,N,11611.8108,W,1,04,2.65,792.7,M,-18.6,M,,0000*5F
$GPRMC,192417.000,A,4336.0505,N,11611.8108,W,0.00,0.00,301019,,,A*7B
$GPGGA,192417.100,4336.0505,N,11611.8106,W,1,04,2.65,792.8,M,-18.6,M,,0000*5F
$GPRMC,192417.100,A,4336.0505,N,11611.8106,W,0.00,0.00,301019,,,A*74
$GPGGA,192417.200,4336.0505,N,11611.8105,W,1,04,2.65,793.0,M,-18.6,M,,0000*56
$GPRMC,192417.200,A,4336.0505,N,11611.8105,W,0.00,0.00,301019,,,A*74
$GPGGA,192417.299,4336.0505,N,11611.8104,W,1,04,2.65,793.1,M,-18.6,M,,0000*56
$GPRMC,192417.299,A,4336.0505,N,11611.8104,W,0.00,0.00,301019,,,A*75
$GPGGA,192417.399,4336.0504,N,11611.8103,W,1,04,2.65,793.2,M,-18.6,M,,0000*52
$GPRMC,192417.399,A,4336.0504,N,11611.8103,W,0.00,0.00,301019,,,A*72
$GPGGA,192417.500,4336.0504,N,11611.8102,W,1,04,2.65,793.3,M,-18.6,M,,0000*54
$GPRMC,192417.500,A,4336.0504,N,11611.8102,W,0.00,0.00,301019,,,A*75
$GPGGA,192417.600,4336.0504,N,11611.8101,W,1,04,2.65,793.4,M,-18.6,M,,0000*53
$GPRMC,192417.600,A,4336.0504,N,11611.8101,W,0.00,0.00,301019,,,A*75
$GPGGA,192417.700,4336.0504,N,11611.8099,W,1,04,2.65,793.6,M,-18.6,M,,0000*50
$GPRMC,192417.700,A,4336.0504,N,11611.8099,W,0.00,0.00,301019,,,A*74
$GPGGA,192417.799,4336.0504,N,11611.8099,W,1,04,2.65,793.7,M,-18.6,M,,0000*51
$GPRMC,192417.799,A,4336.0504,N,11611.8099,W,0.00,0.00,301019,,,A*74
$GPGGA,192417.899,4336.0504,N,11611.8098,W,1,04,2.65,793.8,M,-18.6,M,,0000*50
$GPRMC,192417.899,A,4336.0504,N,11611.8098,W,0.00,0.00,301019,,,A*7A
$GPGGA,192418.000,4336.0504,N,11611.8097,W,1,04,2.65,793.9,M,-18.6,M,,0000*59
$GPRMC,192418.000,A,4336.0504,N,11611.8097,W,0.00,0.00,301019,,,A*72
$GPGGA,192418.100,4336.0504,N,11611.8096,W,1,04,2.65,794.0,M,-18.6,M,,0000*57
$GPRMC,192418.100,A,4336.0504,N,11611.8096,W,0.00,0.00,301019,,,A*72
$GPGGA,192418.200,4336.0504,N,11611.8095,W,1,04,2.65,794.1,M,-18.6,M,,0000*56
$GPRMC,192418.200,A,4336.0504,N,11611.8095,W,0.00,0.00,301019,,,A*72
$GPGGA,192418.299,4336.0504,N,11611.8094,W,1,04,2.65,794.2,M,-18.6,M,,0000*54
$GPRMC,192418.299,A,4336.0504,N,11611.8094,W,0.00,0.00,301019,,,A*73
$GPGGA,192418.399,4336.0504,N,11611.8093,W,1,04,2.65,794.3,M,-18.6,M,,0000*53
$GPRMC,192418.399,A,4336.0504,N,11611.8093,W,0.00,0.00,301019,,,A*75
$GPGGA,192418.500,4336.0504,N,11611.8092,W,1,04,2.65,794.4,M,-18.6,M,,0000*53
$GPRMC,192418.500,A,4336.0504,N,11611.8092,W,0.00,0.00,301019,,,A*72
$GPGGA,192418.600,4336.0504,N,11611.8091,W,1,04,2.65,794.5,M,-18.6,M,,0000*52
$GPRMC,192418.600,A,4336.0504,N,11611.8091,W,0.00,0.00,301019,,,A*72
$GPGGA,192418.700,4336.0504,N,11611.8090,W,1,04,2.65,794.6,M,-18.6,M,,0000*51
$GPRMC,192418.700,A,4336.0504,N,11611.8090,W,0.00,0.00,301019,,,A*72
$GPGGA,192418.799,4336.0504,N,11611.8089,W,1,04,2.65,794.6,M,-18.6,M,,0000*59
$GPRMC,192418.799,A,4336.0504,N,11611.8089,W,0.00,0.00,301019,,,A*7A
$GPGGA,192418.899,4336.0505,N,11611.8088,W,1,04,2.65,794.7,M,-18.6,M,,0000*57
$GPRMC,192418.899,A,4336.0505,N,11611.8088,W,0.00,0.00,301019,,,A*75
$GPGGA,192419.000,4336.0505,N,11611.8087,W,1,04,2.65,794.8,M,-18.6,M,,0000*5E
$GPRMC,192419.000,A,4336.0505,N,11611.8087,W,0.00,0.00,301019,,,A*73
$GPGGA,192419.100,4336.0505,N,11611.8086,W,1,04,2.65,794.8,M,-18.6,M,,0000*5E
$GPRMC,192419.100,A,4336.0505,N,11611.8086,W,0.00,0.00,301019,,,A*73
$GPGGA,192419.200,4336.0505,N,11611.8085,W,1,04,2.65,794.9,M,-18.6,M,,0000*5F
$GPRMC,192419.200,A,4336.0505,N,11611.8085,W,0.00,0.00,301019,,,A*73
$GPGGA,192419.299,4336.0505,N,11611.8083,W,1,04,2.65,795.0,M,-18.6,M,,0000*51
$GPRMC,192419.299,A,4336.0505,N,11611.8083,W,0.00,0.00,301019,,,A*75
$GPGGA,192419.399,4336.0505,N,11611.8082,W,1,04,2.65,795.0,M,-18.6,M,,0000*51
$GPRMC,192419.399,A,4336.0505,N,11611.8082,W,0.00,0.00,301019,,,A*75
$GPGGA,192419.500,4336.0505,N,11611.8081,W,1,04,2.65,795.1,M,-18.6,M,,0000*55
$GPRMC,192419.500,A,4336.0505,N,11611.8081,W,0.00,0.00,301019,,,A*70
$GPGGA,192419.600,4336.0505,N,11611.8080,W,1,04,2.65,795.2,M,-18.6,M,,0000*54
$GPRMC,192419.600,A,4336.0505,N,11611.8080,W,0.00,0.00,301019,,,A*72
$GPGGA,192419.700,4336.0505,N,11611.8078,W,1,04,2.65,795.3,M,-18.6,M,,0000*53
$GPRMC,192419.700,A,4336.0505,N,11611.8078,W,0.00,0.00,301019,,,A*74
$GPGGA,192419.799,4336.0506,N,11611.8077,W,1,04,2.65,795.4,M,-18.6,M,,0000*58
$GPRMC,192419.799,A,4336.0506,N,11611.8077,W,0.00,0.00,301019,,,A*78
$GPGGA,192419.899,4336.0506,N,11611.8076,W,1,04,2.65,795.5,M,-18.6,M,,0000*57
$GPRMC,192419.899,A,4336.0506,N,11611.8076,W,0.00,0.00,301019,,,A*76
$GPGGA,192420.000,4336.0506,N,11611.8075,W,1,04,2.65,795.6,M,-18.6,M,,0000*55
$GPRMC,192420.000,A,4336.0506,N,11611.8075,W,0.00,0.00,301019,,,A*77
$GPGGA,192420.100,4336.0506,N,11611.8073,W,1,04,2.65,795.6,M,-18.6,M,,0000*52
$GPRMC,192420.100,A,4336.0506,N,11611.8073,W,0.00,0.00,301019,,,A*70
$GPGGA,192420.200,4336.0506,N,11611.8072,W,1,04,2.65,795.7,M,-18.6,M,,0000*51
$GPRMC,192420.200,A,4336.0506,N,11611.8072,W,0.00,0.00,301019,,,A*72
$GPGGA,192420.299,4336.0506,N,11611.8071,W,1,04,2.65,795.8,M,-18.6,M,,0000*5D
$GPRMC,192420.299,A,4336.0506,N,11611.8071,W,0.00,0.00,301019,,,A*71
$GPGGA,192420.399,4336.0506,N,11611.8070,W,1,04,2.65,795.9,M,-18.6,M,,0000*5C
$GPRMC,192420.399,A,4336.0506,N,11611.8070,W,0.00,0.00,301019,,,A*71
$GPGGA,192420.500,4336.0507,N,11611.8069,W,1,04,2.65,796.0,M,-18.6,M,,0000*59
$GPRMC,192420.500,A,4336.0507,N,11611.8069,W,0.00,0.00,301019,,,A*7E
$GPGGA,192420.600,4336.0507,N,11611.8068,W,1,04,2.65,796.0,M,-18.6,M,,0000*5B
$GPRMC,192420.600,A,4336.0507,N,11611.8068,W,0.00,0.00,301019,,,A*7C
$GPGGA,192420.700,4336.0507,N,11611.8067,W,1,04,2.65,796.1,M,-18.6,M,,0000*54
$GPRMC,192420.700,A,4336.0507,N,11611.8067,W,0.00,0.00,301019,,,A*72
$GPGGA,192420.799,4336.0507,N,11611.8066,W,1,04,2.65,796.2,M,-18.6,M,,0000*56
$GPRMC,192420.799,A,4336.0507,N,11611.8066,W,0.00,0.00,301019,,,A*73
$GPGGA,192420.899,4336.0507,N,11611.8065,W,1,04,2.65,796.3,M,-18.6,M,,0000*5B
$GPRMC,192420.899,A,4336.0507,N,11611.8065,W,0.00,0.00,301019,,,A*7F
$GPGGA,192421.000,4336.0507,N,11611.8064,W,1,04,2.65,796.4,M,-18.6,M,,0000*54
$GPRMC,192421.000,A,4336.0507,N,11611.8064,W,0.00,0.00,301019,,,A*77
$GPGGA,192421.100,4336.0507,N,11611.8063,W,1,04,2.65,796.5,M,-18.6,M,,0000*53
$GPRMC,192421.100,A,4336.0507,N,11611.8063,W,0.00,0.00,301019,,,A*71
$GPGGA,192421.200,4336.0507,N,11611.8062,W,1,04,2.65,796.5,M,-18.6,M,,0000*51
$GPRMC,192421.200,A,4336.0507,N,11611.8062,W,0.00,0.00,301019,,,A*73
$GPGGA,192421.299,4336.0507,N,11611.8061,W,1,04,2.65,796.6,M,-18.6,M,,0000*51
$GPRMC,192421.299,A,4336.0507,N,11611.8061,W,0.00,0.00,301019,,,A*70
$GPGGA,192421.399,4336.0507,N,11611.8060,W,1,04,2.65,796.7,M,-18.6,M,,0000*50
$GPRMC,192421.399,A,4336.0507,N,11611.8060,W,0.00,0.00,301019,,,A*70
$GPGGA,192421.500,4336.0507,N,11611.8059,W,1,04,2.65,796.7,M,-18.6,M,,0000*5C
$GPRMC,192421.500,A,4336.0507,N,11611.8059,W,0.00,0.00,301019,,,A*7C
$GPGGA,192421.600,4336.0507,N,11611.8058,W,1,04,2.65,796.8,M,-18.6,M,,0000*51
$GPRMC,192421.600,A,4336.0507,N,11611.8058,W,0.00,0.00,301019,,,A*7E
$GPGGA,192421.700,4336.0507,N,11611.8057,W,1,04,2.65,796.9,M,-18.6,M,,0000*5E
$GPRMC,192421.700,A,4336.0507,N,11611.8057,W,0.00,0.00,301019,,,A*70
$GPGGA,192421.799,4336.0507,N,11611.8056,W,1,04,2.65,796.9,M,-18.6,M,,0000*5F
$GPRMC,192421.799,A,4336.0507,N,11611.8056,W,0.00,0.00,301019,,,A*71
$GPGGA,192421.899,4336.0507,N,11611.8055,W,1,04,2.65,797.0,M,-18.6,M,,0000*5B
$GPRMC,192421.899,A,4336.0507,N,11611.8055,W,0.00,0.00,301019,,,A*7D
$GPGGA,192422.000,4336.0507,N,11611.8054,W,1,04,2.65,797.1,M,-18.6,M,,0000*50
$GPRMC,192422.000,A,4336.0507,N,11611.8054,W,0.00,0.00,301019,,,A*77
$GPGGA,192422.100,4336.0507,N,11611.8053,W,1,04,2.65,797.1,M,-18.6,M,,0000*56
$GPRMC,192422.100,A,4336.0507,N,11611.8053,W,0.00,0.00,301019,,,A*71
$GPGGA,192422.200,4336.0507,N,11611.8052,W,1,04,2.65,797.2,M,-18.6,M,,0000*57
$GPRMC,192422.200,A,4336.0507,N,11611.8052,W,0.00,0.00,301019,,,A*73
$GPGGA,192422.299,4336.0507,N,11611.8051,W,1,04,2.65,797.3,M,-18.6,M,,0000*55
$GPRMC,192422.299,A,4336.0507,N,11611.8051,W,0.00,0.00,301019,,,A*70
$GPGGA,192422.399,4336.0507,N,11611.8050,W,1,04,2.65,797.3,M,-18.6,M,,0000*55
$GPRMC,192422.399,A,4336.0507,N,11611.8050,W,0.00,0.00,301019,,,A*70
$GPGGA,192422.500,4336.0507,N,11611.8049,W,1,04,2.65,797.4,M,-18.6,M,,0000*5C
$GPRMC,192422.500,A,4336.0507,N,11611.8049,W,0.00,0.00,301019,,,A*7E
$GPGGA,192422.600,4336.0507,N,11611.8048,W,1,04,2.65,797.4,M,-18.6,M,,0000*5E
$GPRMC,192422.600,A,4336.0507,N,11611.8048,W,0.00,0.00,301019,,,A*7C
$GPGGA,192422.700,4336.0507,N,11611.8047,W,1,04,2.65,797.5,M,-18.6,M,,0000*51
$GPRMC,192422.700,A,4336.0507,N,11611.8047,W,0.00,0.00,301019,,,A*72
$GPGGA,192422.799,4336.0507,N,11611.8047,W,1,04,2.65,797.6,M,-18.6,M,,0000*52
$GPRMC,192422.799,A,4336.0507,N,11611.8047,W,0.00,0.00,301019,,,A*72
$GPGGA,192422.899,4336.0507,N,11611.8046,W,1,04,2.65,797.6,M,-18.6,M,,0000*5C
$GPRMC,192422.899,A,4336.0507,N,11611.8046,W,0.00,0.00,301019,,,A*7C
$GPGGA,192423.000,4336.0506,N,11611.8045,W,1,04,2.65,797.7,M,-18.6,M,,0000*56
$GPRMC,192423.000,A,4336.0506,N,11611.8045,W,0.00,0.00,301019,,,A*77
$GPGGA,192423.100,4336.0506,N,11611.8045,W,1,04,2.65,797.8,M,-18.6,M,,0000*58
$GPRMC,192423.100,A,4336.0506,N,11611.8045,W,0.00,0.00,301019,,,A*76
$GPGGA,192423.200,4336.0506,N,11611.8044,W,1,04,2.65,797.9,M,-18.6,M,,0000*5B
$GPRMC,192423.200,A,4336.0506,N,11611.8044,W,0.00,0.00,301019,,,A*74
$GPGGA,192423.299,4336.0506,N,11611.8043,W,1,04,2.65,797.9,M,-18.6,M,,0000*5C
$GPRMC,192423.299,A,4336.0506,N,11611.8043,W,0.00,0.00,301019,,,A*73
$GPGGA,192423.399,4336.0506,N,11611.8042,W,1,04,2.65,798.0,M,-18.6,M,,0000*5A
$GPRMC,192423.399,A,4336.0506,N,11611.8042,W,0.00,0.00,301019,,,A*73
$GPGGA,192423.500,4336.0506,N,11611.8042,W,1,04,2.65,798.0,M,-18.6,M,,0000*5C
$GPRMC,192423.500,A,4336.0506,N,11611.8042,W,0.00,0.00,301019,,,A*75
$GPGGA,192423.600,4336.0506,N,11611.8041,W,1,04,2.65,798.1,M,-18.6,M,,0000*5D
$GPRMC,192423.600,A,4336.0506,N,11611.8041,W,0.00,0.00,301019,,,A*75
$GPGGA,192423.700,4336.0506,N,11611.8040,W,1,04,2.65,798.2,M,-18.6,M,,0000*5E
$GPRMC,192423.700,A,4336.0506,N,11611.8040,W,0.00,0.00,301019,,,A*75
$GPGGA,192423.799,4336.0506,N,11611.8039,W,1,04,2.65,798.2,M,-18.6,M,,0000*50
$GPRMC,192423.799,A,4336.0506,N,11611.8039,W,0.00,0.00,301019,,,A*7B
$GPGGA,192423.899,4336.0506,N,11611.8039,W,1,04,2.65,798.3,M,-18.6,M,,0000*5E
$GPRMC,192423.899,A,4336.0506,N,11611.8039,W,0.00,0.00,301019,,,A*74
$GPGGA,192424.000,4336.0506,N,11611.8038,W,1,04,2.65,798.3,M,-18.6,M,,0000*50
$GPRMC,192424.000,A,4336.0506,N,11611.8038,W,0.00,0.00,301019,,,A*7A
$GPGGA,192424.100,4336.0506,N,11611.8037,W,1,04,2.65,798.4,M,-18.6,M,,0000*59
$GPRMC,192424.100,A,4336.0506,N,11611.8037,W,0.00,0.00,301019,,,A*74
$GPGGA,192424.200,4336.0506,N,11611.8036,W,1,04,2.65,798.4,M,-18.6,M,,0000*5B
$GPRMC,192424.200,A,4336.0506,N,11611.8036,W,0.00,0.00,301019,,,A*76
$GPGGA,192424.299,4336.0506,N,11611.8036,W,1,04,2.65,798.5,M,-18.6,M,,0000*5A
$GPRMC,192424.299,A,4336.0506,N,11611.8036,W,0.00,0.00,301019,,,A*76
$GPGGA,192424.399,4336.0506,N,11611.8035,W,1,04,2.65,798.5,M,-18.6,M,,0000*58
$GPRMC,192424.399,A,4336.0506,N,11611.8035,W,0.00,0.00,301019,,,A*74
$GPGGA,192424.500,4336.0506,N,11611.8034,W,1,04,2.65,798.6,M,-18.6,M,,0000*5C
$GPRMC,192424.500,A,4336.0506,N,11611.8034,W,0.00,0.00,301019,,,A*73
$GPGGA,192424.600,4336.0506,N,11611.8033,W,1,04,2.65,798.6,M,-18.6,M,,0000*58
$GPRMC,192424.600,A,4336.0506,N,11611.8033,W,0.00,0.00,301019,,,A*77
$GPGGA,192424.700,4336.0506,N,11611.8032,W,1,04,2.65,798.7,M,-18.6,M,,0000*59
$GPRMC,192424.700,A,4336.0506,N,11611.8032,W,0.00,0.00,301019,,,A*77
$GPGGA,192424.799,4336.0506,N,11611.8032,W,1,04,2.65,798.7,M,-18.6,M,,0000*59
$GPRMC,192424.799,A,4336.0506,N,11611.8032,W,0.00,0.00,301019,,,A*77
$GPGGA,192424.899,4336.0506,N,11611.8031,W,1,04,2.65,798.8,M,-18.6,M,,0000*5A
$GPRMC,192424.899,A,4336.0506,N,11611.8031,W,0.00,0.00,301019,,,A*7B
$GPGGA,192425.000,4336.0506,N,11611.8030,W,1,04,2.65,798.8,M,-18.6,M,,0000*52
$GPRMC,192425.000,A,4336.0506,N,11611.8030,W,0.00,0.00,301019,,,A*73
$GPGGA,192425.100,4336.0507,N,11611.8030,W,1,04,2.65,798.9,M,-18.6,M,,0000*53
$GPRMC,192425.100,A,4336.0507,N,11611.8030,W,0.00,0.00,301019,,,A*73
$GPGGA,192425.200,4336.0507,N,11611.8029,W,1,04,2.65,799.0,M,-18.6,M,,0000*50
$GPRMC,192425.200,A,4336.0507,N,11611.8029,W,0.00,0.00,301019,,,A*78
$GPGGA,192425.299,4336.0507,N,11611.8029,W,1,04,2.65,799.0,M,-18.6,M,,0000*50
$GPRMC,192425.299,A,4336.0507,N,11611.8029,W,0.00,0.00,301019,,,A*78
$GPGGA,192425.399,4336.0507,N,11611.8028,W,1,04,2.65,799.0,M,-18.6,M,,0000*50
$GPRMC,192425.399,A,4336.0507,N,11611.8028,W,0.00,0.00,301019,,,A*78
$GPGGA,192425.500,4336.0507,N,11611.8028,W,1,04,2.65,799.1,M,-18.6,M,,0000*57
$GPRMC,192425.500,A,4336.0507,N,11611.8028,W,0.00,0.00,301019,,,A*7E
$GPGGA,192425.600,4336.0507,N,11611.8027,W,1,04,2.65,799.1,M,-18.6,M,,0000*5B
$GPRMC,192425.600,A,4336.0507,N,11611.8027,W,0.00,0.00,301019,,,A*72
$GPGGA,192425.700,4336.0508,N,11611.8026,W,1,04,2.65,799.2,M,-18.6,M,,0000*57
$GPRMC,192425.700,A,4336.0508,N,11611.8026,W,0.00,0.00,301019,,,A*7D
$GPGGA,192425.799,4336.0508,N,11611.8026,W,1,04,2.65,799.2,M,-18.6,M,,0000*57
$GPRMC,192425.799,A,4336.0508,N,11611.8026,W,0.00,0.00,301019,,,A*7D
$GPGGA,192425.899,4336.0508,N,11611.8025,W,1,04,2.65,799.2,M,-18.6,M,,0000*5B
$GPRMC,192425.899,A,4336.0508,N,11611.8025,W,0.00,0.00,301019,,,A*71
$GPGGA,192426.000,4336.0508,N,11611.8025,W,1,04,2.65,799.3,M,-18.6,M,,0000*51
$GPRMC,192426.000,A,4336.0508,N,11611.8025,W,0.00,0.00,301019,,,A*7A
$GPGGA,192426.100,4336.0508,N,11611.8024,W,1,04,2.65,799.3,M,-18.6,M,,0000*51
$GPRMC,192426.100,A,4336.0508,N,11611.8024,W,0.00,0.00,301019,,,A*7A
$GPGGA,192426.200,4336.0509,N,11611.8023,W,1,04,2.65,799.4,M,-18.6,M,,0000*53
$GPRMC,192426.200,A,4336.0509,N,11611.8023,W,0.00,0.00,301019,,,A*7F
$GPGGA,192426.299,4336.0509,N,11611.8023,W,1,04,2.65,799.4,M,-18.6,M,,0000*53
$GPRMC,192426.299,A,4336.0509,N,11611.8023,W,0.00,0.00,301019,,,A*7F
$GPGGA,192426.399,4336.0509,N,11611.8022,W,1,04,2.65,799.4,M,-18.6,M,,0000*53
$GPRMC,192426.399,A,4336.0509,N,11611.8022,W,0.00,0.00,301019,,,A*7F
$GPGGA,192426.500,4336.0509,N,11611.8021,W,1,04,2.65,799.5,M,-18.6,M,,0000*57
$GPRMC,192426.500,A,4336.0509,N,11611.8021,W,0.00,0.00,301019,,,A*7A
$GPGGA,192426.600,4336.0509,N,11611.8021,W,1,04,2.65,799.5,M,-18.6,M,,0000*54
$GPRMC,192426.600,A,4336.0509,N,11611.8021,W,0.00,0.00,301019,,,A*79
$GPGGA,192426.700,4336.0509,N,11611.8020,W,1,04,2.65,799.5,M,-18.6,M,,0000*54
$GPRMC,192426.700,A,4336.0509,N,11611.8020,W,0.00,0.00,301019,,,A*79
$GPGGA,192426.799,4336.0509,N,11611.8020,W,1,04,2.65,799.5,M,-18.6,M,,0000*54
$GPRMC,192426.799,A,4336.0509,N,11611.8020,W,0.00,0.00,301019,,,A*79
$GPGGA,192426.899,4336.0509,N,11611.8019,W,1,04,2.65,799.6,M,-18.6,M,,0000*52
$GPRMC,192426.899,A,4336.0509,N,11611.8019,W,0.00,0.00,301019,,,A*7C
$GPGGA,192427.000,4336.0509,N,11611.8018,W,1,04,2.65,799.6,M,-18.6,M,,0000*5A
$GPRMC,192427.000,A,4336.0509,N,11611.8018,W,0.00,0.00,301019,,,A*74
$GPGGA,192427.100,4336.0509,N,11611.8018,W,1,04,2.65,799.6,M,-18.6,M,,0000*5B
$GPRMC,192427.100,A,4336.0509,N,11611.8018,W,0.00,0.00,301019,,,A*75
$GPGGA,192427.200,4336.0509,N,11611.8017,W,1,04,2.65,799.7,M,-18.6,M,,0000*56
$GPRMC,192427.200,A,4336.0509,N,11611.8017,W,0.00,0.00,301019,,,A*79
$GPGGA,192427.299,4336.0509,N,11611.8016,W,1,04,2.65,799.7,M,-18.6,M,,0000*57
$GPRMC,192427.299,A,4336.0509,N,11611.8016,W,0.00,0.00,301019,,,A*78
$GPGGA,192427.399,4336.0509,N,11611.8016,W,1,04,2.65,799.7,M,-18.6,M,,0000*56
$GPRMC,192427.399,A,4336.0509,N,11611.8016,W,0.00,0.00,301019,,,A*79
$GPGGA,192427.500,4336.0509,N,11611.8015,W,1,04,2.65,799.7,M,-18.6,M,,0000*53
$GPRMC,192427.500,A,4336.0509,N,11611.8015,W,0.00,0.00,301019,,,A*7C
$GPGGA,192427.600,4336.0509,N,11611.8015,W,1,04,2.65,799.8,M,-18.6,M,,0000*5F
$GPRMC,192427.600,A,4336.0509,N,11611.8015,W,0.00,0.00,301019,,,A*7F
$GPGGA,192427.700,4336.0509,N,11611.8014,W,1,04,2.65,799.8,M,-18.6,M,,0000*5F
$GPRMC,192427.700,A,4336.0509,N,11611.8014,W,0.00,0.00,301019,,,A*7F
$GPGGA,192427.799,4336.0509,N,11611.8014,W,1,04,2.65,799.8,M,-18.6,M,,0000*5F
$GPRMC,192427.799,A,4336.0509,N,11611.8014,W,0.00,0.00,301019,,,A*7F
$GPGGA,192427.899,4336.0509,N,11611.8013,W,1,04,2.65,799.9,M,-18.6,M,,0000*56
$GPRMC,192427.899,A,4336.0509,N,11611.8013,W,0.00,0.00,301019,,,A*77
$GPGGA,192428.000,4336.0509,N,11611.8013,W,1,04,2.65,799.9,M,-18.6,M,,0000*51
$GPRMC,192428.000,A,4336.0509,N,11611.8013,W,0.00,0.00,301019,,,A*70
$GPGGA,192428.100,4336.0508,N,11611.8012,W,1,04,2.65,800.0,M,-18.6,M,,0000*56
$GPRMC,192428.100,A,4336.0508,N,11611.8012,W,0.00,0.00,301019,,,A*71
$GPGGA,192428.200,4336.0508,N,11611.8012,W,1,04,2.65,800.0,M,-18.6,M,,0000*55
$GPRMC,192428.200,A,4336.0508,N,11611.8012,W,0.00,0.00,301019,,,A*72
$GPGGA,192428.299,4336.0508,N,11611.8011,W,1,04,2.65,800.1,M,-18.6,M,,0000*57
$GPRMC,192428.299,A,4336.0508,N,11611.8011,W,0.00,0.00,301019,,,A*71
$GPGGA,192428.399,4336.0508,N,11611.8010,W,1,04,2.65,800.1,M,-18.6,M,,0000*57
$GPRMC,192428.399,A,4336.0508,N,11611.8010,W,0.00,0.00,301019,,,A*71
$GPGGA,192428.500,4336.0508,N,11611.8010,W,1,04,2.66,800.2,M,-18.6,M,,0000*51
$GPRMC,192428.500,A,4336.0508,N,11611.8010,W,0.00,0.00,301019,,,A*77
$GPGGA,192428.600,4336.0508,N,11611.8009,W,1,04,2.65,800.2,M,-18.6,M,,0000*59
$GPRMC,192428.600,A,4336.0508,N,11611.8009,W,0.00,0.00,301019,,,A*7C
$GPGGA,192428.700,4336.0508,N,11611.8009,W,1,04,2.65,800.3,M,-18.6,M,,0000*59
$GPRMC,192428.700,A,4336.0508,N,11611.8009,W,0.00,0.00,301019,,,A*7D
$GPGGA,192428.799,4336.0508,N,11611.8008,W,1,04,2.65,800.3,M,-18.6,M,,0000*58
$GPRMC,192428.799,A,4336.0508,N,11611.8008,W,0.00,0.00,301019,,,A*7C
$GPGGA,192428.899,4336.0508,N,11611.8008,W,1,04,2.65,800.3,M,-18.6,M,,0000*57
$GPRMC,192428.899,A,4336.0508,N,11611.8008,W,0.00,0.00,301019,,,A*73
$GPGGA,192429.000,4336.0508,N,11611.8007,W,1,04,2.65,800.4,M,-18.6,M,,0000*56
$GPRMC,192429.000,A,4336.0508,N,11611.8007,W,0.00,0.00,301019,,,A*75
$GPGGA,192429.100,4336.0507,N,11611.8007,W,1,04,2.65,800.4,M,-18.6,M,,0000*58
$GPRMC,192429.100,A,4336.0507,N,11611.8007,W,0.00,0.00,301019,,,A*7B
$GPGGA,192429.200,4336.0507,N,11611.8007,W,1,04,2.65,800.5,M,-18.6,M,,0000*5A
$GPRMC,192429.200,A,4336.0507,N,11611.8007,W,0.00,0.00,301019,,,A*78
$GPGGA,192429.299,4336.0507,N,11611.8006,W,1,04,2.65,800.5,M,-18.6,M,,0000*5B
$GPRMC,192429.299,A,4336.0507,N,11611.8006,W,0.00,0.00,301019,,,A*79
$GPGGA,192429.399,4336.0507,N,11611.8006,W,1,04,2.65,800.6,M,-18.6,M,,0000*59
$GPRMC,192429.399,A,4336.0507,N,11611.8006,W,0.00,0.00,301019,,,A*78
$GPGGA,192429.500,4336.0507,N,11611.8005,W,1,04,2.65,800.7,M,-18.6,M,,0000*5D
$GPRMC,192429.500,A,4336.0507,N,11611.8005,W,0.00,0.00,301019,,,A*7D
$GPGGA,192429.600,4336.0507,N,11611.8005,W,1,04,2.65,800.7,M,-18.6,M,,0000*5E
$GPRMC,192429.600,A,4336.0507,N,11611.8005,W,0.00,0.00,301019,,,A*7E
$GPGGA,192429.700,4336.0507,N,11611.8004,W,1,04,2.65,800.8,M,-18.6,M,,0000*51
$GPRMC,192429.700,A,4336.0507,N,11611.8004,W,0.00,0.00,301019,,,A*7E
$GPGGA,192429.799,4336.0507,N,11611.8004,W,1,04,2.65,800.8,M,-18.6,M,,0000*51
$GPRMC,192429.799,A,4336.0507,N,11611.8004,W,0.00,0.00,301019,,,A*7E
$GPGGA,192429.899,4336.0507,N,11611.8003,W,1,04,2.65,800.9,M,-18.6,M,,0000*58
$GPRMC,192429.899,A,4336.0507,N,11611.8003,W,0.00,0.00,301019,,,A*76
$GPGGA,192430.000,4336.0507,N,11611.8003,W,1,04,2.65,801.0,M,-18.6,M,,0000*50
$GPRMC,192430.000,A,4336.0507,N,11611.8003,W,0.00,0.00,301019,,,A*76
$GPGGA,192430.100,4336.0507,N,11611.8002,W,1,04,2.65,801.0,M,-18.6,M,,0000*50
$GPRMC,192430.100,A,4336.0507,N,11611.8002,W,0.00,0.00,301019,,,A*76
$GPGGA,192430.200,4336.0507,N,11611.8002,W,1,04,2.66,801.1,M,-18.6,M,,0000*51
$GPRMC,192430.200,A,4336.0507,N,11611.8002,W,0.00,0.00,301019,,,A*75
$GPGGA,192430.299,4336.0507,N,11611.8001,W,1,04,2.65,801.1,M,-18.6,M,,0000*51
$GPRMC,192430.299,A,4336.0507,N,11611.8001,W,0.00,0.00,301019,,,A*76
$GPGGA,192430.399,4336.0506,N,11611.8001,W,1,04,2.65,801.2,M,-18.6,M,,0000*52
$GPRMC,192430.399,A,4336.0506,N,11611.8001,W,0.00,0.00,301019,,,A*76
$GPGGA,192430.500,4336.0506,N,11611.8000,W,1,04,2.65,801.2,M,-18.6,M,,0000*55
$GPRMC,192430.500,A,4336.0506,N,11611.8000,W,0.00,0.00,301019,,,A*71
$GPGGA,192430.600,4336.0506,N,11611.8000,W,1,04,2.66,801.3,M,-18.6,M,,0000*54
$GPRMC,192430.600,A,4336.0506,N,11611.8000,W,0.00,0.00,301019,,,A*72
$GPGGA,192430.700,4336.0506,N,11611.7999,W,1,04,2.65,801.3,M,-18.6,M,,0000*50
$GPRMC,192430.700,A,4336.0506,N,11611.7999,W,0.00,0.00,301019,,,A*75
$GPGGA,192430.799,4336.0506,N,11611.7998,W,1,04,2.65,801.3,M,-18.6,M,,0000*51
$GPRMC,192430.799,A,4336.0506,N,11611.7998,W,0.00,0.00,301019,,,A*74
$GPGGA,192430.899,4336.0507,N,11611.7997,W,1,04,2.65,801.4,M,-18.6,M,,0000*57
$GPRMC,192430.899,A,4336.0507,N,11611.7997,W,0.00,0.00,301019,,,A*75
$GPGGA,192431.000,4336.0507,N,11611.7997,W,1,04,2.65,801.5,M,-18.6,M,,0000*5F
$GPRMC,192431.000,A,4336.0507,N,11611.7997,W,0.00,0.00,301019,,,A*7C
$GPGGA,192431.100,4336.0507,N,11611.7996,W,1,04,2.65,801.5,M,-18.6,M,,0000*5F
$GPRMC,192431.100,A,4336.0507,N,11611.7996,W,0.00,0.00,301019,,,A*7C
$GPGGA,192431.200,4336.0507,N,11611.7995,W,1,04,2.66,801.6,M,-18.6,M,,0000*5F
$GPRMC,192431.200,A,4336.0507,N,11611.7995,W,0.00,0.00,301019,,,A*7C
$GPGGA,192431.299,4336.0507,N,11611.7994,W,1,04,2.65,801.6,M,-18.6,M,,0000*5D
$GPRMC,192431.299,A,4336.0507,N,11611.7994,W,0.00,0.00,301019,,,A*7D
$GPGGA,192431.399,4336.0507,N,11611.7993,W,1,04,2.66,801.6,M,-18.6,M,,0000*58
$GPRMC,192431.399,A,4336.0507,N,11611.7993,W,0.00,0.00,301019,,,A*7B
$GPGGA,192431.500,4336.0507,N,11611.7993,W,1,04,2.66,801.6,M,-18.6,M,,0000*5E
$GPRMC,192431.500,A,4336.0507,N,11611.7993,W,0.00,0.00,301019,,,A*7D
$GPGGA,192431.600,4336.0507,N,11611.7993,W,1,04,2.65,801.6,M,-18.6,M,,0000*5E
$GPRMC,192431.600,A,4336.0507,N,11611.7993,W,0.00,0.00,301019,,,A*7E
$GPGGA,192431.700,4336.0507,N,11611.7993,W,1,04,2.65,801.6,M,-18.6,M,,0000*5F
$GPRMC,192431.700,A,4336.0507,N,11611.7993,W,0.00,0.00,301019,,,A*7F
$GPGGA,192431.799,4336.0507,N,11611.7993,W,1,04,2.66,801.6,M,-18.6,M,,0000*5C
$GPRMC,192431.799,A,4336.0507,N,11611.7993,W,0.00,0.00,301019,,,A*7F
$GPGGA,192431.899,4336.0507,N,11611.7993,W,1,04,2.65,801.6,M,-18.6,M,,0000*50
$GPRMC,192431.899,A,4336.0507,N,11611.7993,W,0.00,0.00,301019,,,A*70
$GPGGA,192432.000,4336.0507,N,11611.7992,W,1,04,2.66,801.6,M,-18.6,M,,0000*59
$GPRMC,192432.000,A,4336.0507,N,11611.7992,W,0.00,0.00,301019,,,A*7A
$GPGGA,192432.100,4336.0507,N,11611.7992,W,1,04,2.66,801.6,M,-18.6,M,,0000*58
$GPRMC,192432.100,A,4336.0507,N,11611.7992,W,0.00,0.00,301019,,,A*7B
$GPGGA,192432.200,4336.0507,N,11611.7992,W,1,04,2.66,801.6,M,-18.6,M,,0000*5B
$GPRMC,192432.200,A,4336.0507,N,11611.7992,W,0.00,0.00,301019,,,A*78
$GPGGA,192432.299,4336.0507,N,11611.7992,W,1,04,2.66,801.6,M,-18.6,M,,0000*5B
$GPRMC,192432.299,A,4336.0507,N,11611.7992,W,0.00,0.00,301019,,,A*78
$GPGGA,192432.399,4336.0507,N,11611.7991,W,1,04,2.65,801.6,M,-18.6,M,,0000*5A
$GPRMC,192432.399,A,4336.0507,N,11611.7991,W,0.00,0.00,301019,,,A*7A
$GPGGA,192432.500,4336.0507,N,11611.7991,W,1,04,2.66,801.6,M,-18.6,M,,0000*5F
$GPRMC,192432.500,A,4336.0507,N,11611.7991,W,0.00,0.00,301019,,,A*7C
$GPGGA,192432.600,4336.0508,N,11611.7991,W,1,04,2.66,801.6,M,-18.6,M,,0000*53
$GPRMC,192432.600,A,4336.0508,N,11611.7991,W,0.00,0.00,301019,,,A*70
$GPGGA,192432.700,4336.0508,N,11611.7990,W,1,04,2.66,801.7,M,-18.6,M,,0000*52
$GPRMC,192432.700,A,4336.0508,N,11611.7990,W,0.00,0.00,301019,,,A*70
$GPGGA,192432.799,4336.0508,N,11611.7989,W,1,04,2.65,801.7,M,-18.6,M,,0000*59
$GPRMC,192432.799,A,4336.0508,N,11611.7989,W,0.00,0.00,301019,,,A*78
$GPGGA,192432.899,4336.0508,N,11611.7989,W,1,04,2.65,801.8,M,-18.6,M,,0000*59
$GPRMC,192432.899,A,4336.0508,N,11611.7989,W,0.00,0.00,301019,,,A*77
$GPGGA,192433.000,4336.0508,N,11611.7988,W,1,04,2.66,801.8,M,-18.6,M,,0000*52
$GPRMC,192433.000,A,4336.0508,N,11611.7988,W,0.00,0.00,301019,,,A*7F
$GPGGA,192433.100,4336.0508,N,11611.7987,W,1,04,2.65,801.9,M,-18.6,M,,0000*5E
$GPRMC,192433.100,A,4336.0508,N,11611.7987,W,0.00,0.00,301019,,,A*71
$GPGGA,192433.200,4336.0508,N,11611.7987,W,1,04,2.66,801.9,M,-18.6,M,,0000*5E
$GPRMC,192433.200,A,4336.0508,N,11611.7987,W,0.00,0.00,301019,,,A*72
$GPGGA,192433.299,4336.0508,N,11611.7986,W,1,04,2.66,802.0,M,-18.6,M,,0000*55
$GPRMC,192433.299,A,4336.0508,N,11611.7986,W,0.00,0.00,301019,,,A*73
$GPGGA,192433.399,4336.0508,N,11611.7985,W,1,04,2.66,802.1,M,-18.6,M,,0000*56
$GPRMC,192433.399,A,4336.0508,N,11611.7985,W,0.00,0.00,301019,,,A*71
$GPGGA,192433.500,4336.0508,N,11611.7985,W,1,04,2.66,802.1,M,-18.6,M,,0000*50
$GPRMC,192433.500,A,4336.0508,N,11611.7985,W,0.00,0.00,301019,,,A*77
$GPGGA,192433.600,4336.0508,N,11611.7984,W,1,04,2.66,802.2,M,-18.6,M,,0000*51
